{
  "timestamp": "2025-08-06T14:23:32.628Z",
  "source": "development",
  "poi_count": 138,
  "data": [
    {
      "id": 12,
      "name": "Gooseberry Falls State Park",
      "lat": "47.13970000",
      "lng": "-91.46900000",
      "park_type": "State Park",
      "data_source": "manual",
      "description": "Spectacular waterfalls along Lake Superior with hiking trails",
      "place_rank": 10,
      "osm_id": null,
      "osm_type": null,
      "search_name": {
        "primary": "Gooseberry Falls State Park",
        "variations": [
          "Gooseberry Falls State Park"
        ]
      },
      "external_id": null
    },
    {
      "id": 13,
      "name": "Itasca State Park",
      "lat": "47.21810000",
      "lng": "-95.20580000",
      "park_type": "State Park",
      "data_source": "manual",
      "description": "Headwaters of the Mississippi River with old-growth pines",
      "place_rank": 10,
      "osm_id": null,
      "osm_type": null,
      "search_name": {
        "primary": "Itasca State Park",
        "variations": [
          "Itasca State Park"
        ]
      },
      "external_id": null
    },
    {
      "id": 16,
      "name": "Split Rock Lighthouse State Park",
      "lat": "47.19990000",
      "lng": "-91.38950000",
      "park_type": "State Park",
      "data_source": "manual",
      "description": "Iconic lighthouse on Lake Superior cliffs with hiking trails",
      "place_rank": 10,
      "osm_id": null,
      "osm_type": null,
      "search_name": {
        "primary": "Split Rock Lighthouse State Park",
        "variations": [
          "Split Rock Lighthouse State Park"
        ]
      },
      "external_id": null
    },
    {
      "id": 17,
      "name": "Taylors Falls State Park",
      "lat": "45.40050000",
      "lng": "-92.65180000",
      "park_type": "State Park",
      "data_source": "manual",
      "description": "St. Croix River gorge with rock climbing and scenic overlooks",
      "place_rank": 10,
      "osm_id": null,
      "osm_type": null,
      "search_name": {
        "primary": "Taylors Falls State Park",
        "variations": [
          "Taylors Falls State Park"
        ]
      },
      "external_id": null
    },
    {
      "id": 238,
      "name": "Grand Portage National Monument",
      "lat": "47.99530000",
      "lng": "-89.68420000",
      "park_type": "National Monument",
      "data_source": "seed_script",
      "description": "Historic fur trade depot and Ojibwe heritage",
      "place_rank": 12,
      "osm_id": null,
      "osm_type": null,
      "search_name": null,
      "external_id": "mn_park_grand_portage_national_monument"
    },
    {
      "id": 237,
      "name": "Pipestone National Monument",
      "lat": "44.01330000",
      "lng": "-96.32530000",
      "park_type": "National Monument",
      "data_source": "seed_script",
      "description": "Sacred Native American quarries",
      "place_rank": 12,
      "osm_id": null,
      "osm_type": null,
      "search_name": null,
      "external_id": "mn_park_pipestone_national_monument"
    },
    {
      "id": 181,
      "name": "Afton State Park",
      "lat": "44.83390000",
      "lng": "-92.79350000",
      "park_type": "State Park",
      "data_source": "seed_script",
      "description": "Bluff-top views of the St. Croix River valley",
      "place_rank": 15,
      "osm_id": null,
      "osm_type": null,
      "search_name": null,
      "external_id": "mn_park_afton_state_park"
    },
    {
      "id": 167,
      "name": "Bear Head Lake State Park",
      "lat": "47.81670000",
      "lng": "-92.05000000",
      "park_type": "State Park",
      "data_source": "seed_script",
      "description": "Wilderness escape with clear lakes and hiking trails",
      "place_rank": 15,
      "osm_id": null,
      "osm_type": null,
      "search_name": null,
      "external_id": "mn_park_bear_head_lake_state_park"
    },
    {
      "id": 185,
      "name": "Beaver Creek Valley State Park",
      "lat": "43.63810000",
      "lng": "-91.59720000",
      "park_type": "State Park",
      "data_source": "seed_script",
      "description": "Spring-fed trout stream in a narrow valley",
      "place_rank": 15,
      "osm_id": null,
      "osm_type": null,
      "search_name": null,
      "external_id": "mn_park_beaver_creek_valley_state_park"
    },
    {
      "id": 201,
      "name": "Big Stone Lake State Park",
      "lat": "45.36670000",
      "lng": "-96.45000000",
      "park_type": "State Park",
      "data_source": "seed_script",
      "description": "Minnesota's western border lake with great fishing",
      "place_rank": 15,
      "osm_id": null,
      "osm_type": null,
      "search_name": null,
      "external_id": "mn_park_big_stone_lake_state_park"
    },
    {
      "id": 196,
      "name": "Blue Mounds State Park",
      "lat": "43.70670000",
      "lng": "-96.18920000",
      "park_type": "State Park",
      "data_source": "seed_script",
      "description": "Sioux quartzite cliff and bison herd on the prairie",
      "place_rank": 15,
      "osm_id": null,
      "osm_type": null,
      "search_name": null,
      "external_id": "mn_park_blue_mounds_state_park"
    },
    {
      "id": 255,
      "name": "Buffalo River State Park",
      "lat": "46.86670000",
      "lng": "-96.45000000",
      "park_type": "State Park",
      "data_source": "seed_script",
      "description": "Prairie river ecosystem",
      "place_rank": 15,
      "osm_id": null,
      "osm_type": null,
      "search_name": null,
      "external_id": "mn_park_buffalo_river_state_park"
    },
    {
      "id": 195,
      "name": "Camden State Park",
      "lat": "44.36670000",
      "lng": "-95.91670000",
      "park_type": "State Park",
      "data_source": "seed_script",
      "description": "Spring-fed Redwood River valley with swimming and trails",
      "place_rank": 15,
      "osm_id": null,
      "osm_type": null,
      "search_name": null,
      "external_id": "mn_park_camden_state_park"
    },
    {
      "id": 187,
      "name": "Carley State Park",
      "lat": "44.11030000",
      "lng": "-92.16360000",
      "park_type": "State Park",
      "data_source": "seed_script",
      "description": "Prairie restoration and Whitewater River access",
      "place_rank": 15,
      "osm_id": null,
      "osm_type": null,
      "search_name": null,
      "external_id": "mn_park_carley_state_park"
    },
    {
      "id": 160,
      "name": "Cascade River State Park",
      "lat": "47.70890000",
      "lng": "-90.50000000",
      "park_type": "State Park",
      "data_source": "seed_script",
      "description": "Series of waterfalls flowing into Lake Superior",
      "place_rank": 15,
      "osm_id": null,
      "osm_type": null,
      "search_name": null,
      "external_id": "mn_park_cascade_river_state_park"
    },
    {
      "id": 174,
      "name": "Charles A. Lindbergh State Park",
      "lat": "45.95940000",
      "lng": "-94.38470000",
      "park_type": "State Park",
      "data_source": "seed_script",
      "description": "Boyhood home of aviator Charles Lindbergh",
      "place_rank": 15,
      "osm_id": null,
      "osm_type": null,
      "search_name": null,
      "external_id": "mn_park_charles_a__lindbergh_state_park"
    },
    {
      "id": 173,
      "name": "Crow Wing State Park",
      "lat": "46.26530000",
      "lng": "-94.33330000",
      "park_type": "State Park",
      "data_source": "seed_script",
      "description": "Historic fur trading post at Mississippi River confluence",
      "place_rank": 15,
      "osm_id": null,
      "osm_type": null,
      "search_name": null,
      "external_id": "mn_park_crow_wing_state_park"
    },
    {
      "id": 172,
      "name": "Father Hennepin State Park",
      "lat": "46.16670000",
      "lng": "-93.45000000",
      "park_type": "State Park",
      "data_source": "seed_script",
      "description": "Peninsula park on Mille Lacs Lake with great fishing",
      "place_rank": 15,
      "osm_id": null,
      "osm_type": null,
      "search_name": null,
      "external_id": "mn_park_father_hennepin_state_park"
    },
    {
      "id": 192,
      "name": "Flandrau State Park",
      "lat": "44.28890000",
      "lng": "-94.45920000",
      "park_type": "State Park",
      "data_source": "seed_script",
      "description": "Swimming pond and trails along the Cottonwood River",
      "place_rank": 15,
      "osm_id": null,
      "osm_type": null,
      "search_name": null,
      "external_id": "mn_park_flandrau_state_park"
    },
    {
      "id": 188,
      "name": "Forestville/Mystery Cave State Park",
      "lat": "43.63580000",
      "lng": "-92.22580000",
      "park_type": "State Park",
      "data_source": "seed_script",
      "description": "Minnesota's longest cave and historic townsite",
      "place_rank": 15,
      "osm_id": null,
      "osm_type": null,
      "search_name": null,
      "external_id": "mn_park_forestville_mystery_cave_state_park"
    },
    {
      "id": 193,
      "name": "Fort Ridgely State Park",
      "lat": "44.44330000",
      "lng": "-94.72670000",
      "park_type": "State Park",
      "data_source": "seed_script",
      "description": "Historic fort site with golf course and trails",
      "place_rank": 15,
      "osm_id": null,
      "osm_type": null,
      "search_name": null,
      "external_id": "mn_park_fort_ridgely_state_park"
    },
    {
      "id": 202,
      "name": "Fort Snelling State Park",
      "lat": "44.89280000",
      "lng": "-93.18110000",
      "park_type": "State Park",
      "data_source": "seed_script",
      "description": "Historic fort at confluence of Mississippi and Minnesota rivers",
      "place_rank": 15,
      "osm_id": null,
      "osm_type": null,
      "search_name": null,
      "external_id": "mn_park_fort_snelling_state_park"
    },
    {
      "id": 182,
      "name": "Frontenac State Park",
      "lat": "44.51670000",
      "lng": "-92.35000000",
      "park_type": "State Park",
      "data_source": "seed_script",
      "description": "Bird migration hotspot overlooking Lake Pepin",
      "place_rank": 15,
      "osm_id": null,
      "osm_type": null,
      "search_name": null,
      "external_id": "mn_park_frontenac_state_park"
    },
    {
      "id": 163,
      "name": "George H. Crosby Manitou State Park",
      "lat": "47.48330000",
      "lng": "-91.11670000",
      "park_type": "State Park",
      "data_source": "seed_script",
      "description": "Backpacking paradise with rugged terrain and quiet solitude",
      "place_rank": 15,
      "osm_id": null,
      "osm_type": null,
      "search_name": null,
      "external_id": "mn_park_george_h__crosby_manitou_state_park"
    },
    {
      "id": 257,
      "name": "Glacial Lakes State Park",
      "lat": "45.55000000",
      "lng": "-95.40000000",
      "park_type": "State Park",
      "data_source": "seed_script",
      "description": "Rolling hills and prairie lakes",
      "place_rank": 15,
      "osm_id": null,
      "osm_type": null,
      "search_name": null,
      "external_id": "mn_park_glacial_lakes_state_park"
    },
    {
      "id": 256,
      "name": "Glendalough State Park",
      "lat": "46.33330000",
      "lng": "-95.68330000",
      "park_type": "State Park",
      "data_source": "seed_script",
      "description": "Heritage fishery and pristine lakes",
      "place_rank": 15,
      "osm_id": null,
      "osm_type": null,
      "search_name": null,
      "external_id": "mn_park_glendalough_state_park"
    },
    {
      "id": 156,
      "name": "Gooseberry Falls State Park",
      "lat": "47.13890000",
      "lng": "-91.47060000",
      "park_type": "State Park",
      "data_source": "seed_script",
      "description": "Famous for its spectacular waterfalls on the Gooseberry River",
      "place_rank": 15,
      "osm_id": null,
      "osm_type": null,
      "search_name": null,
      "external_id": "mn_park_gooseberry_falls_state_park"
    },
    {
      "id": 161,
      "name": "Grand Portage State Park",
      "lat": "48.00000000",
      "lng": "-89.58330000",
      "park_type": "State Park",
      "data_source": "seed_script",
      "description": "Minnesota's highest waterfall and northernmost state park",
      "place_rank": 15,
      "osm_id": null,
      "osm_type": null,
      "search_name": null,
      "external_id": "mn_park_grand_portage_state_park"
    },
    {
      "id": 184,
      "name": "Great River Bluffs State Park",
      "lat": "43.93440000",
      "lng": "-91.40830000",
      "park_type": "State Park",
      "data_source": "seed_script",
      "description": "Spectacular bluff-top views of the Mississippi River",
      "place_rank": 15,
      "osm_id": null,
      "osm_type": null,
      "search_name": null,
      "external_id": "mn_park_great_river_bluffs_state_park"
    },
    {
      "id": 252,
      "name": "Hayes Lake State Park",
      "lat": "48.63330000",
      "lng": "-95.51670000",
      "park_type": "State Park",
      "data_source": "seed_script",
      "description": "Remote northern wilderness park",
      "place_rank": 15,
      "osm_id": null,
      "osm_type": null,
      "search_name": null,
      "external_id": "mn_park_hayes_lake_state_park"
    },
    {
      "id": 169,
      "name": "Hill Annex Mine State Park",
      "lat": "47.51670000",
      "lng": "-93.26670000",
      "park_type": "State Park",
      "data_source": "seed_script",
      "description": "Historic open-pit iron mine with fossil hunting",
      "place_rank": 15,
      "osm_id": null,
      "osm_type": null,
      "search_name": null,
      "external_id": "mn_park_hill_annex_mine_state_park"
    },
    {
      "id": 178,
      "name": "Interstate State Park",
      "lat": "45.39080000",
      "lng": "-92.65220000",
      "park_type": "State Park",
      "data_source": "seed_script",
      "description": "Dramatic glacial potholes and cliffs along the St. Croix River",
      "place_rank": 15,
      "osm_id": null,
      "osm_type": null,
      "search_name": null,
      "external_id": "mn_park_interstate_state_park"
    },
    {
      "id": 164,
      "name": "Itasca State Park",
      "lat": "47.24190000",
      "lng": "-95.20610000",
      "park_type": "State Park",
      "data_source": "seed_script",
      "description": "Headwaters of the Mississippi River and old-growth pine forests",
      "place_rank": 15,
      "osm_id": null,
      "osm_type": null,
      "search_name": null,
      "external_id": "mn_park_itasca_state_park"
    },
    {
      "id": 183,
      "name": "John A. Latsch State Park",
      "lat": "44.06670000",
      "lng": "-91.86670000",
      "park_type": "State Park",
      "data_source": "seed_script",
      "description": "Blufftop park with Mississippi River valley views",
      "place_rank": 15,
      "osm_id": null,
      "osm_type": null,
      "search_name": null,
      "external_id": "mn_park_john_a__latsch_state_park"
    },
    {
      "id": 162,
      "name": "Judge C.R. Magney State Park",
      "lat": "47.81670000",
      "lng": "-90.05000000",
      "park_type": "State Park",
      "data_source": "seed_script",
      "description": "Home to the mysterious Devil's Kettle waterfall",
      "place_rank": 15,
      "osm_id": null,
      "osm_type": null,
      "search_name": null,
      "external_id": "mn_park_judge_c_r__magney_state_park"
    },
    {
      "id": 259,
      "name": "Kilen Woods State Park",
      "lat": "43.73330000",
      "lng": "-95.06670000",
      "park_type": "State Park",
      "data_source": "seed_script",
      "description": "Oak woodlands along the Des Moines River",
      "place_rank": 15,
      "osm_id": null,
      "osm_type": null,
      "search_name": null,
      "external_id": "mn_park_kilen_woods_state_park"
    },
    {
      "id": 200,
      "name": "Lac qui Parle State Park",
      "lat": "45.00000000",
      "lng": "-95.88330000",
      "park_type": "State Park",
      "data_source": "seed_script",
      "description": "Prairie wetlands and historic sites",
      "place_rank": 15,
      "osm_id": null,
      "osm_type": null,
      "search_name": null,
      "external_id": "mn_park_lac_qui_parle_state_park"
    },
    {
      "id": 165,
      "name": "Lake Bemidji State Park",
      "lat": "47.53330000",
      "lng": "-94.83330000",
      "park_type": "State Park",
      "data_source": "seed_script",
      "description": "Beautiful beaches and bog walk on Lake Bemidji",
      "place_rank": 15,
      "osm_id": null,
      "osm_type": null,
      "search_name": null,
      "external_id": "mn_park_lake_bemidji_state_park"
    },
    {
      "id": 253,
      "name": "Lake Bronson State Park",
      "lat": "48.73330000",
      "lng": "-96.66670000",
      "park_type": "State Park",
      "data_source": "seed_script",
      "description": "Prairie meets aspen parkland",
      "place_rank": 15,
      "osm_id": null,
      "osm_type": null,
      "search_name": null,
      "external_id": "mn_park_lake_bronson_state_park"
    },
    {
      "id": 258,
      "name": "Lake Carlos State Park",
      "lat": "45.98330000",
      "lng": "-95.35000000",
      "park_type": "State Park",
      "data_source": "seed_script",
      "description": "Clear water lake with great swimming",
      "place_rank": 15,
      "osm_id": null,
      "osm_type": null,
      "search_name": null,
      "external_id": "mn_park_lake_carlos_state_park"
    },
    {
      "id": 189,
      "name": "Lake Louise State Park",
      "lat": "43.54140000",
      "lng": "-92.50060000",
      "park_type": "State Park",
      "data_source": "seed_script",
      "description": "Prairie restoration with wildflowers and wildlife",
      "place_rank": 15,
      "osm_id": null,
      "osm_type": null,
      "search_name": null,
      "external_id": "mn_park_lake_louise_state_park"
    },
    {
      "id": 175,
      "name": "Lake Maria State Park",
      "lat": "45.32140000",
      "lng": "-93.93060000",
      "park_type": "State Park",
      "data_source": "seed_script",
      "description": "Remnant of Big Woods with trails and backcountry campsites",
      "place_rank": 15,
      "osm_id": null,
      "osm_type": null,
      "search_name": null,
      "external_id": "mn_park_lake_maria_state_park"
    },
    {
      "id": 194,
      "name": "Lake Shetek State Park",
      "lat": "44.10440000",
      "lng": "-95.69170000",
      "park_type": "State Park",
      "data_source": "seed_script",
      "description": "Largest lake in southwest Minnesota with diverse recreation",
      "place_rank": 15,
      "osm_id": null,
      "osm_type": null,
      "search_name": null,
      "external_id": "mn_park_lake_shetek_state_park"
    },
    {
      "id": 267,
      "name": "Lake Vermilion State Park",
      "lat": "47.82920000",
      "lng": "-92.42830000",
      "park_type": "State Park",
      "data_source": "seed_script",
      "description": "Newest state park on scenic Lake Vermilion",
      "place_rank": 15,
      "osm_id": null,
      "osm_type": null,
      "search_name": null,
      "external_id": "mn_park_lake_vermilion_state_park"
    },
    {
      "id": 168,
      "name": "McCarthy Beach State Park",
      "lat": "47.65220000",
      "lng": "-93.06030000",
      "park_type": "State Park",
      "data_source": "seed_script",
      "description": "Sandy beach on Side Lake with excellent swimming",
      "place_rank": 15,
      "osm_id": null,
      "osm_type": null,
      "search_name": null,
      "external_id": "mn_park_mccarthy_beach_state_park"
    },
    {
      "id": 171,
      "name": "Mille Lacs Kathio State Park",
      "lat": "46.13080000",
      "lng": "-93.74470000",
      "park_type": "State Park",
      "data_source": "seed_script",
      "description": "Archaeological sites and hiking trails near Mille Lacs Lake",
      "place_rank": 15,
      "osm_id": null,
      "osm_type": null,
      "search_name": null,
      "external_id": "mn_park_mille_lacs_kathio_state_park"
    },
    {
      "id": 191,
      "name": "Minneopa State Park",
      "lat": "44.14330000",
      "lng": "-94.09220000",
      "park_type": "State Park",
      "data_source": "seed_script",
      "description": "Double waterfall and historic windmill",
      "place_rank": 15,
      "osm_id": null,
      "osm_type": null,
      "search_name": null,
      "external_id": "mn_park_minneopa_state_park"
    },
    {
      "id": 177,
      "name": "Monson Lake State Park",
      "lat": "45.31670000",
      "lng": "-95.26670000",
      "park_type": "State Park",
      "data_source": "seed_script",
      "description": "Historic site with swimming beach and hiking trails",
      "place_rank": 15,
      "osm_id": null,
      "osm_type": null,
      "search_name": null,
      "external_id": "mn_park_monson_lake_state_park"
    },
    {
      "id": 190,
      "name": "Myre-Big Island State Park",
      "lat": "43.63830000",
      "lng": "-93.30890000",
      "park_type": "State Park",
      "data_source": "seed_script",
      "description": "Oak savanna on a glacial esker peninsula",
      "place_rank": 15,
      "osm_id": null,
      "osm_type": null,
      "search_name": null,
      "external_id": "mn_park_myre_big_island_state_park"
    },
    {
      "id": 262,
      "name": "Nerstrand Big Woods State Park",
      "lat": "44.34530000",
      "lng": "-93.09720000",
      "park_type": "State Park",
      "data_source": "seed_script",
      "description": "Last remnant of Big Woods with hidden waterfall",
      "place_rank": 15,
      "osm_id": null,
      "osm_type": null,
      "search_name": null,
      "external_id": "mn_park_nerstrand_big_woods_state_park"
    },
    {
      "id": 254,
      "name": "Old Mill State Park",
      "lat": "48.25000000",
      "lng": "-96.08330000",
      "park_type": "State Park",
      "data_source": "seed_script",
      "description": "Historic mill and swimming hole",
      "place_rank": 15,
      "osm_id": null,
      "osm_type": null,
      "search_name": null,
      "external_id": "mn_park_old_mill_state_park"
    },
    {
      "id": 261,
      "name": "Rice Lake State Park",
      "lat": "44.08330000",
      "lng": "-93.06670000",
      "park_type": "State Park",
      "data_source": "seed_script",
      "description": "Southern hardwood forests",
      "place_rank": 15,
      "osm_id": null,
      "osm_type": null,
      "search_name": null,
      "external_id": "mn_park_rice_lake_state_park"
    },
    {
      "id": 260,
      "name": "Sakatah Lake State Park",
      "lat": "44.23330000",
      "lng": "-93.51670000",
      "park_type": "State Park",
      "data_source": "seed_script",
      "description": "Hardwood forests and lake recreation",
      "place_rank": 15,
      "osm_id": null,
      "osm_type": null,
      "search_name": null,
      "external_id": "mn_park_sakatah_lake_state_park"
    },
    {
      "id": 166,
      "name": "Scenic State Park",
      "lat": "47.70890000",
      "lng": "-93.58330000",
      "park_type": "State Park",
      "data_source": "seed_script",
      "description": "Virgin pine forests surrounding pristine lakes",
      "place_rank": 15,
      "osm_id": null,
      "osm_type": null,
      "search_name": null,
      "external_id": "mn_park_scenic_state_park"
    },
    {
      "id": 176,
      "name": "Sibley State Park",
      "lat": "45.00140000",
      "lng": "-95.01420000",
      "park_type": "State Park",
      "data_source": "seed_script",
      "description": "Mount Tom offers panoramic views of the prairie landscape",
      "place_rank": 15,
      "osm_id": null,
      "osm_type": null,
      "search_name": null,
      "external_id": "mn_park_sibley_state_park"
    },
    {
      "id": 170,
      "name": "Soudan Underground Mine State Park",
      "lat": "47.81470000",
      "lng": "-92.24420000",
      "park_type": "State Park",
      "data_source": "seed_script",
      "description": "Minnesota's oldest iron mine with underground tours",
      "place_rank": 15,
      "osm_id": null,
      "osm_type": null,
      "search_name": null,
      "external_id": "mn_park_soudan_underground_mine_state_park"
    },
    {
      "id": 197,
      "name": "Split Rock Creek State Park",
      "lat": "43.50000000",
      "lng": "-96.36670000",
      "park_type": "State Park",
      "data_source": "seed_script",
      "description": "Historic dam and lake on Split Rock Creek",
      "place_rank": 15,
      "osm_id": null,
      "osm_type": null,
      "search_name": null,
      "external_id": "mn_park_split_rock_creek_state_park"
    },
    {
      "id": 279,
      "name": "Split Rock Creek State Park",
      "lat": "43.88330000",
      "lng": "-96.36670000",
      "park_type": "State Park",
      "data_source": "seed_script",
      "description": "Historic dam and recreation area",
      "place_rank": 15,
      "osm_id": null,
      "osm_type": null,
      "search_name": null,
      "external_id": "mn_park_split_rock_creek_state_park"
    },
    {
      "id": 157,
      "name": "Split Rock Lighthouse State Park",
      "lat": "47.20030000",
      "lng": "-91.36720000",
      "park_type": "State Park",
      "data_source": "seed_script",
      "description": "Iconic lighthouse perched on a cliff overlooking Lake Superior",
      "place_rank": 15,
      "osm_id": null,
      "osm_type": null,
      "search_name": null,
      "external_id": "mn_park_split_rock_lighthouse_state_park"
    },
    {
      "id": 159,
      "name": "Temperance River State Park",
      "lat": "47.55220000",
      "lng": "-90.88250000",
      "park_type": "State Park",
      "data_source": "seed_script",
      "description": "Deep gorges and waterfalls carved by the Temperance River",
      "place_rank": 15,
      "osm_id": null,
      "osm_type": null,
      "search_name": null,
      "external_id": "mn_park_temperance_river_state_park"
    },
    {
      "id": 158,
      "name": "Tettegouche State Park",
      "lat": "47.34250000",
      "lng": "-91.19780000",
      "park_type": "State Park",
      "data_source": "seed_script",
      "description": "Rugged coastline, inland lakes, and the Baptism River High Falls",
      "place_rank": 15,
      "osm_id": null,
      "osm_type": null,
      "search_name": null,
      "external_id": "mn_park_tettegouche_state_park"
    },
    {
      "id": 199,
      "name": "Upper Sioux Agency State Park",
      "lat": "44.73330000",
      "lng": "-95.46670000",
      "park_type": "State Park",
      "data_source": "seed_script",
      "description": "Historic site with hiking and horseback riding trails",
      "place_rank": 15,
      "osm_id": null,
      "osm_type": null,
      "search_name": null,
      "external_id": "mn_park_upper_sioux_agency_state_park"
    },
    {
      "id": 186,
      "name": "Whitewater State Park",
      "lat": "44.05970000",
      "lng": "-92.03860000",
      "park_type": "State Park",
      "data_source": "seed_script",
      "description": "Limestone bluffs and trout streams in the Driftless Area",
      "place_rank": 15,
      "osm_id": null,
      "osm_type": null,
      "search_name": null,
      "external_id": "mn_park_whitewater_state_park"
    },
    {
      "id": 179,
      "name": "Wild River State Park",
      "lat": "45.53420000",
      "lng": "-92.75060000",
      "park_type": "State Park",
      "data_source": "seed_script",
      "description": "18 miles of St. Croix River shoreline with diverse habitats",
      "place_rank": 15,
      "osm_id": null,
      "osm_type": null,
      "search_name": null,
      "external_id": "mn_park_wild_river_state_park"
    },
    {
      "id": 180,
      "name": "William O'Brien State Park",
      "lat": "45.22190000",
      "lng": "-92.76190000",
      "park_type": "State Park",
      "data_source": "seed_script",
      "description": "Hardwood forests and wetlands along the St. Croix River",
      "place_rank": 15,
      "osm_id": null,
      "osm_type": null,
      "search_name": null,
      "external_id": "mn_park_william_o_brien_state_park"
    },
    {
      "id": 251,
      "name": "Zippel Bay State Park",
      "lat": "48.86670000",
      "lng": "-94.85000000",
      "park_type": "State Park",
      "data_source": "seed_script",
      "description": "Lake of the Woods beaches and fishing",
      "place_rank": 15,
      "osm_id": null,
      "osm_type": null,
      "search_name": null,
      "external_id": "mn_park_zippel_bay_state_park"
    },
    {
      "id": 231,
      "name": "Agassiz National Wildlife Refuge",
      "lat": "48.30000000",
      "lng": "-96.00000000",
      "park_type": "Wildlife Refuge",
      "data_source": "seed_script",
      "description": "Vast wetlands in northwestern Minnesota",
      "place_rank": 18,
      "osm_id": null,
      "osm_type": null,
      "search_name": null,
      "external_id": "mn_park_agassiz_national_wildlife_refuge"
    },
    {
      "id": 233,
      "name": "Big Stone National Wildlife Refuge",
      "lat": "45.26670000",
      "lng": "-96.33330000",
      "park_type": "Wildlife Refuge",
      "data_source": "seed_script",
      "description": "Prairie and wetland habitats",
      "place_rank": 18,
      "osm_id": null,
      "osm_type": null,
      "search_name": null,
      "external_id": "mn_park_big_stone_national_wildlife_refuge"
    },
    {
      "id": 234,
      "name": "Crane Meadows National Wildlife Refuge",
      "lat": "46.23330000",
      "lng": "-93.83330000",
      "park_type": "Wildlife Refuge",
      "data_source": "seed_script",
      "description": "Wetlands for waterfowl and sandhill cranes",
      "place_rank": 18,
      "osm_id": null,
      "osm_type": null,
      "search_name": null,
      "external_id": "mn_park_crane_meadows_national_wildlife_refuge"
    },
    {
      "id": 232,
      "name": "Hamden Slough National Wildlife Refuge",
      "lat": "47.01670000",
      "lng": "-96.28330000",
      "park_type": "Wildlife Refuge",
      "data_source": "seed_script",
      "description": "Prairie pothole wetlands and grasslands",
      "place_rank": 18,
      "osm_id": null,
      "osm_type": null,
      "search_name": null,
      "external_id": "mn_park_hamden_slough_national_wildlife_refuge"
    },
    {
      "id": 227,
      "name": "Minnesota Valley National Wildlife Refuge",
      "lat": "44.80750000",
      "lng": "-93.52720000",
      "park_type": "Wildlife Refuge",
      "data_source": "seed_script",
      "description": "Urban refuge along the Minnesota River",
      "place_rank": 18,
      "osm_id": null,
      "osm_type": null,
      "search_name": null,
      "external_id": "mn_park_minnesota_valley_national_wildlife_refuge"
    },
    {
      "id": 235,
      "name": "Northern Tallgrass Prairie National Wildlife Refuge",
      "lat": "44.08330000",
      "lng": "-96.16670000",
      "park_type": "Wildlife Refuge",
      "data_source": "seed_script",
      "description": "Scattered prairie remnants preservation",
      "place_rank": 18,
      "osm_id": null,
      "osm_type": null,
      "search_name": null,
      "external_id": "mn_park_northern_tallgrass_prairie_national_wildlife_refuge"
    },
    {
      "id": 229,
      "name": "Rice Lake National Wildlife Refuge",
      "lat": "46.51670000",
      "lng": "-93.33330000",
      "park_type": "Wildlife Refuge",
      "data_source": "seed_script",
      "description": "Wild rice lakes and diverse wildlife",
      "place_rank": 18,
      "osm_id": null,
      "osm_type": null,
      "search_name": null,
      "external_id": "mn_park_rice_lake_national_wildlife_refuge"
    },
    {
      "id": 236,
      "name": "Rydell National Wildlife Refuge",
      "lat": "47.53330000",
      "lng": "-95.30000000",
      "park_type": "Wildlife Refuge",
      "data_source": "seed_script",
      "description": "Transition zone between prairie and forest",
      "place_rank": 18,
      "osm_id": null,
      "osm_type": null,
      "search_name": null,
      "external_id": "mn_park_rydell_national_wildlife_refuge"
    },
    {
      "id": 228,
      "name": "Sherburne National Wildlife Refuge",
      "lat": "45.41670000",
      "lng": "-93.95000000",
      "park_type": "Wildlife Refuge",
      "data_source": "seed_script",
      "description": "Oak savanna and wetlands sanctuary",
      "place_rank": 18,
      "osm_id": null,
      "osm_type": null,
      "search_name": null,
      "external_id": "mn_park_sherburne_national_wildlife_refuge"
    },
    {
      "id": 230,
      "name": "Tamarac National Wildlife Refuge",
      "lat": "47.05000000",
      "lng": "-95.60000000",
      "park_type": "Wildlife Refuge",
      "data_source": "seed_script",
      "description": "Lakes, bogs, and forests in the glacial lake country",
      "place_rank": 18,
      "osm_id": null,
      "osm_type": null,
      "search_name": null,
      "external_id": "mn_park_tamarac_national_wildlife_refuge"
    },
    {
      "id": 212,
      "name": "Baker Park Reserve",
      "lat": "45.04810000",
      "lng": "-93.58690000",
      "park_type": "Regional Park",
      "data_source": "seed_script",
      "description": "Lake Independence shoreline with diverse habitats",
      "place_rank": 20,
      "osm_id": null,
      "osm_type": null,
      "search_name": null,
      "external_id": "mn_park_baker_park_reserve"
    },
    {
      "id": 207,
      "name": "Battle Creek Regional Park",
      "lat": "44.93560000",
      "lng": "-93.02140000",
      "park_type": "Regional Park",
      "data_source": "seed_script",
      "description": "Wooded valleys and ravines in St. Paul",
      "place_rank": 20,
      "osm_id": null,
      "osm_type": null,
      "search_name": null,
      "external_id": "mn_park_battle_creek_regional_park"
    },
    {
      "id": 216,
      "name": "Bunker Hills Regional Park",
      "lat": "45.21810000",
      "lng": "-93.28390000",
      "park_type": "Regional Park",
      "data_source": "seed_script",
      "description": "Wave pool, golf, and extensive trails",
      "place_rank": 20,
      "osm_id": null,
      "osm_type": null,
      "search_name": null,
      "external_id": "mn_park_bunker_hills_regional_park"
    },
    {
      "id": 19,
      "name": "Bunker Hills Regional Park",
      "lat": "45.24500000",
      "lng": "-93.28000000",
      "park_type": "County Park",
      "data_source": "manual",
      "description": "Multi-use park with trails, beach, and recreational facilities",
      "place_rank": 20,
      "osm_id": null,
      "osm_type": null,
      "search_name": {
        "primary": "Bunker Hills Regional Park",
        "variations": [
          "Bunker Hills Regional Park"
        ]
      },
      "external_id": null
    },
    {
      "id": 211,
      "name": "Carver Park Reserve",
      "lat": "44.87830000",
      "lng": "-93.62830000",
      "park_type": "Regional Park",
      "data_source": "seed_script",
      "description": "Largest park in Three Rivers system",
      "place_rank": 20,
      "osm_id": null,
      "osm_type": null,
      "search_name": null,
      "external_id": "mn_park_carver_park_reserve"
    },
    {
      "id": 205,
      "name": "Chain of Lakes Regional Park",
      "lat": "44.94830000",
      "lng": "-93.30670000",
      "park_type": "Regional Park",
      "data_source": "seed_script",
      "description": "Connected lakes with trails in Minneapolis",
      "place_rank": 20,
      "osm_id": null,
      "osm_type": null,
      "search_name": null,
      "external_id": "mn_park_chain_of_lakes_regional_park"
    },
    {
      "id": 206,
      "name": "Como Regional Park",
      "lat": "44.98190000",
      "lng": "-93.14940000",
      "park_type": "Regional Park",
      "data_source": "seed_script",
      "description": "Historic park with zoo, conservatory, and lake",
      "place_rank": 20,
      "osm_id": null,
      "osm_type": null,
      "search_name": null,
      "external_id": "mn_park_como_regional_park"
    },
    {
      "id": 214,
      "name": "Coon Rapids Dam Regional Park",
      "lat": "45.14440000",
      "lng": "-93.31170000",
      "park_type": "Regional Park",
      "data_source": "seed_script",
      "description": "Mississippi River dam with visitor center",
      "place_rank": 20,
      "osm_id": null,
      "osm_type": null,
      "search_name": null,
      "external_id": "mn_park_coon_rapids_dam_regional_park"
    },
    {
      "id": 213,
      "name": "Elm Creek Park Reserve",
      "lat": "45.13940000",
      "lng": "-93.44060000",
      "park_type": "Regional Park",
      "data_source": "seed_script",
      "description": "Swimming pond, trails, and nature center",
      "place_rank": 20,
      "osm_id": null,
      "osm_type": null,
      "search_name": null,
      "external_id": "mn_park_elm_creek_park_reserve"
    },
    {
      "id": 210,
      "name": "Hyland Lake Park Reserve",
      "lat": "44.84330000",
      "lng": "-93.37170000",
      "park_type": "Regional Park",
      "data_source": "seed_script",
      "description": "Year-round recreation with ski slopes and trails",
      "place_rank": 20,
      "osm_id": null,
      "osm_type": null,
      "search_name": null,
      "external_id": "mn_park_hyland_lake_park_reserve"
    },
    {
      "id": 208,
      "name": "Lebanon Hills Regional Park",
      "lat": "44.77640000",
      "lng": "-93.18720000",
      "park_type": "Regional Park",
      "data_source": "seed_script",
      "description": "2,000 acres with mountain biking and hiking trails",
      "place_rank": 20,
      "osm_id": null,
      "osm_type": null,
      "search_name": null,
      "external_id": "mn_park_lebanon_hills_regional_park"
    },
    {
      "id": 20,
      "name": "Minnehaha Falls Regional Park",
      "lat": "44.91530000",
      "lng": "-93.21110000",
      "park_type": "County Park",
      "data_source": "manual",
      "description": "Historic waterfall park with paved trails and scenic overlooks",
      "place_rank": 20,
      "osm_id": null,
      "osm_type": null,
      "search_name": {
        "primary": "Minnehaha Falls Regional Park",
        "variations": [
          "Minnehaha Falls Regional Park"
        ]
      },
      "external_id": null
    },
    {
      "id": 203,
      "name": "Minnehaha Regional Park",
      "lat": "44.91530000",
      "lng": "-93.21000000",
      "park_type": "Regional Park",
      "data_source": "seed_script",
      "description": "53-foot waterfall and limestone bluffs in Minneapolis",
      "place_rank": 20,
      "osm_id": null,
      "osm_type": null,
      "search_name": null,
      "external_id": "mn_park_minnehaha_regional_park"
    },
    {
      "id": 209,
      "name": "Murphy-Hanrehan Park Reserve",
      "lat": "44.73940000",
      "lng": "-93.34390000",
      "park_type": "Regional Park",
      "data_source": "seed_script",
      "description": "Glacial landscapes with challenging trails",
      "place_rank": 20,
      "osm_id": null,
      "osm_type": null,
      "search_name": null,
      "external_id": "mn_park_murphy_hanrehan_park_reserve"
    },
    {
      "id": 215,
      "name": "Rice Creek Chain of Lakes Park Reserve",
      "lat": "45.13890000",
      "lng": "-93.09170000",
      "park_type": "Regional Park",
      "data_source": "seed_script",
      "description": "Multiple lakes connected by channels",
      "place_rank": 20,
      "osm_id": null,
      "osm_type": null,
      "search_name": null,
      "external_id": "mn_park_rice_creek_chain_of_lakes_park_reserve"
    },
    {
      "id": 21,
      "name": "Rum River Central Regional Park",
      "lat": "45.36000000",
      "lng": "-93.20000000",
      "park_type": "County Park",
      "data_source": "manual",
      "description": "River park with canoe access and hiking trails",
      "place_rank": 20,
      "osm_id": null,
      "osm_type": null,
      "search_name": {
        "primary": "Rum River Central Regional Park",
        "variations": [
          "Rum River Central Regional Park"
        ]
      },
      "external_id": null
    },
    {
      "id": 239,
      "name": "Saint Croix National Scenic Riverway",
      "lat": "45.40000000",
      "lng": "-92.65000000",
      "park_type": "Scenic River",
      "data_source": "seed_script",
      "description": "Protected river corridor for paddling",
      "place_rank": 20,
      "osm_id": null,
      "osm_type": null,
      "search_name": null,
      "external_id": "mn_park_saint_croix_national_scenic_riverway"
    },
    {
      "id": 204,
      "name": "Theodore Wirth Regional Park",
      "lat": "44.98890000",
      "lng": "-93.32390000",
      "park_type": "Regional Park",
      "data_source": "seed_script",
      "description": "Minneapolis' largest park with lakes and trails",
      "place_rank": 20,
      "osm_id": null,
      "osm_type": null,
      "search_name": null,
      "external_id": "mn_park_theodore_wirth_regional_park"
    },
    {
      "id": 217,
      "name": "Chengwatana State Forest",
      "lat": "45.85000000",
      "lng": "-92.88330000",
      "park_type": "State Forest",
      "data_source": "seed_script",
      "description": "Pine forests with ATV and snowmobile trails",
      "place_rank": 22,
      "osm_id": null,
      "osm_type": null,
      "search_name": null,
      "external_id": "mn_park_chengwatana_state_forest"
    },
    {
      "id": 225,
      "name": "D.A.R. State Forest",
      "lat": "45.98330000",
      "lng": "-93.18330000",
      "park_type": "State Forest",
      "data_source": "seed_script",
      "description": "Hardwood forests near the St. Croix River",
      "place_rank": 22,
      "osm_id": null,
      "osm_type": null,
      "search_name": null,
      "external_id": "mn_park_d_a_r__state_forest"
    },
    {
      "id": 221,
      "name": "Foot Hills State Forest",
      "lat": "46.85000000",
      "lng": "-94.83330000",
      "park_type": "State Forest",
      "data_source": "seed_script",
      "description": "Rolling hills and mixed forests",
      "place_rank": 22,
      "osm_id": null,
      "osm_type": null,
      "search_name": null,
      "external_id": "mn_park_foot_hills_state_forest"
    },
    {
      "id": 224,
      "name": "General C.C. Andrews State Forest",
      "lat": "46.16670000",
      "lng": "-92.70000000",
      "park_type": "State Forest",
      "data_source": "seed_script",
      "description": "Historic forestry site with trails",
      "place_rank": 22,
      "osm_id": null,
      "osm_type": null,
      "search_name": null,
      "external_id": "mn_park_general_c_c__andrews_state_forest"
    },
    {
      "id": 268,
      "name": "Kabetogama State Forest",
      "lat": "48.33330000",
      "lng": "-93.00000000",
      "park_type": "State Forest",
      "data_source": "seed_script",
      "description": "Gateway to Voyageurs National Park waters",
      "place_rank": 22,
      "osm_id": null,
      "osm_type": null,
      "search_name": null,
      "external_id": "mn_park_kabetogama_state_forest"
    },
    {
      "id": 269,
      "name": "Lake of the Woods State Forest",
      "lat": "48.75000000",
      "lng": "-95.08330000",
      "park_type": "State Forest",
      "data_source": "seed_script",
      "description": "Vast northern waters and forests",
      "place_rank": 22,
      "osm_id": null,
      "osm_type": null,
      "search_name": null,
      "external_id": "mn_park_lake_of_the_woods_state_forest"
    },
    {
      "id": 223,
      "name": "Nemadji State Forest",
      "lat": "46.58330000",
      "lng": "-92.58330000",
      "park_type": "State Forest",
      "data_source": "seed_script",
      "description": "Red clay valleys and pine forests",
      "place_rank": 22,
      "osm_id": null,
      "osm_type": null,
      "search_name": null,
      "external_id": "mn_park_nemadji_state_forest"
    },
    {
      "id": 222,
      "name": "Paul Bunyan State Forest",
      "lat": "47.36670000",
      "lng": "-94.88330000",
      "park_type": "State Forest",
      "data_source": "seed_script",
      "description": "Named for the legendary lumberjack",
      "place_rank": 22,
      "osm_id": null,
      "osm_type": null,
      "search_name": null,
      "external_id": "mn_park_paul_bunyan_state_forest"
    },
    {
      "id": 220,
      "name": "Pillsbury State Forest",
      "lat": "46.63330000",
      "lng": "-94.26670000",
      "park_type": "State Forest",
      "data_source": "seed_script",
      "description": "Diverse forest habitats with many lakes",
      "place_rank": 22,
      "osm_id": null,
      "osm_type": null,
      "search_name": null,
      "external_id": "mn_park_pillsbury_state_forest"
    },
    {
      "id": 218,
      "name": "Sand Dunes State Forest",
      "lat": "46.40000000",
      "lng": "-93.06670000",
      "park_type": "State Forest",
      "data_source": "seed_script",
      "description": "Unique sand dune ecosystem with OHV recreation",
      "place_rank": 22,
      "osm_id": null,
      "osm_type": null,
      "search_name": null,
      "external_id": "mn_park_sand_dunes_state_forest"
    },
    {
      "id": 219,
      "name": "Savanna State Forest",
      "lat": "46.78330000",
      "lng": "-93.35000000",
      "park_type": "State Forest",
      "data_source": "seed_script",
      "description": "Jack pine forests and wetlands",
      "place_rank": 22,
      "osm_id": null,
      "osm_type": null,
      "search_name": null,
      "external_id": "mn_park_savanna_state_forest"
    },
    {
      "id": 226,
      "name": "Snake River State Forest",
      "lat": "46.13330000",
      "lng": "-93.11670000",
      "park_type": "State Forest",
      "data_source": "seed_script",
      "description": "Canoeing and camping along the Snake River",
      "place_rank": 22,
      "osm_id": null,
      "osm_type": null,
      "search_name": null,
      "external_id": "mn_park_snake_river_state_forest"
    },
    {
      "id": 263,
      "name": "Crosslake Recreation Area",
      "lat": "46.65810000",
      "lng": "-94.11330000",
      "park_type": "Recreation Area",
      "data_source": "seed_script",
      "description": "Popular lake area in Brainerd Lakes region",
      "place_rank": 23,
      "osm_id": null,
      "osm_type": null,
      "search_name": null,
      "external_id": "mn_park_crosslake_recreation_area"
    },
    {
      "id": 265,
      "name": "Gull Lake Recreation Area",
      "lat": "46.41670000",
      "lng": "-94.35000000",
      "park_type": "Recreation Area",
      "data_source": "seed_script",
      "description": "Large lake with multiple access points",
      "place_rank": 23,
      "osm_id": null,
      "osm_type": null,
      "search_name": null,
      "external_id": "mn_park_gull_lake_recreation_area"
    },
    {
      "id": 198,
      "name": "Lake Pahoja Recreation Area",
      "lat": "44.08330000",
      "lng": "-95.05000000",
      "park_type": "Recreation Area",
      "data_source": "seed_script",
      "description": "Small lake with camping and water activities",
      "place_rank": 23,
      "osm_id": null,
      "osm_type": null,
      "search_name": null,
      "external_id": "mn_park_lake_pahoja_recreation_area"
    },
    {
      "id": 266,
      "name": "Leech Lake Recreation Area",
      "lat": "47.08330000",
      "lng": "-94.38330000",
      "park_type": "Recreation Area",
      "data_source": "seed_script",
      "description": "Minnesota's third largest lake",
      "place_rank": 23,
      "osm_id": null,
      "osm_type": null,
      "search_name": null,
      "external_id": "mn_park_leech_lake_recreation_area"
    },
    {
      "id": 240,
      "name": "Mississippi National River and Recreation Area",
      "lat": "44.94890000",
      "lng": "-93.09830000",
      "park_type": "Recreation Area",
      "data_source": "seed_script",
      "description": "72-mile river corridor through Twin Cities",
      "place_rank": 23,
      "osm_id": null,
      "osm_type": null,
      "search_name": null,
      "external_id": "mn_park_mississippi_national_river_and_recreation_area"
    },
    {
      "id": 264,
      "name": "Pelican Lake Recreation Area",
      "lat": "46.60000000",
      "lng": "-94.15000000",
      "park_type": "Recreation Area",
      "data_source": "seed_script",
      "description": "Excellent fishing and water sports",
      "place_rank": 23,
      "osm_id": null,
      "osm_type": null,
      "search_name": null,
      "external_id": "mn_park_pelican_lake_recreation_area"
    },
    {
      "id": 247,
      "name": "Cannon Valley Trail",
      "lat": "44.46670000",
      "lng": "-92.90000000",
      "park_type": "Trail System",
      "data_source": "seed_script",
      "description": "20 miles along the Cannon River",
      "place_rank": 24,
      "osm_id": null,
      "osm_type": null,
      "search_name": null,
      "external_id": "mn_park_cannon_valley_trail"
    },
    {
      "id": 245,
      "name": "Central Lakes State Trail",
      "lat": "46.28330000",
      "lng": "-95.05000000",
      "park_type": "Trail System",
      "data_source": "seed_script",
      "description": "55 miles connecting lake communities",
      "place_rank": 24,
      "osm_id": null,
      "osm_type": null,
      "search_name": null,
      "external_id": "mn_park_central_lakes_state_trail"
    },
    {
      "id": 250,
      "name": "Gateway State Trail",
      "lat": "45.00000000",
      "lng": "-92.93330000",
      "park_type": "Trail System",
      "data_source": "seed_script",
      "description": "18 miles from St. Paul to Pine Point Park",
      "place_rank": 24,
      "osm_id": null,
      "osm_type": null,
      "search_name": null,
      "external_id": "mn_park_gateway_state_trail"
    },
    {
      "id": 244,
      "name": "Glacial Lakes State Trail",
      "lat": "45.55000000",
      "lng": "-95.13330000",
      "park_type": "Trail System",
      "data_source": "seed_script",
      "description": "22 miles through rolling prairie",
      "place_rank": 24,
      "osm_id": null,
      "osm_type": null,
      "search_name": null,
      "external_id": "mn_park_glacial_lakes_state_trail"
    },
    {
      "id": 243,
      "name": "Heartland State Trail",
      "lat": "45.80000000",
      "lng": "-94.75000000",
      "park_type": "Trail System",
      "data_source": "seed_script",
      "description": "49 miles through lakes and forests",
      "place_rank": 24,
      "osm_id": null,
      "osm_type": null,
      "search_name": null,
      "external_id": "mn_park_heartland_state_trail"
    },
    {
      "id": 246,
      "name": "Lake Wobegon Trail",
      "lat": "45.61670000",
      "lng": "-94.58330000",
      "park_type": "Trail System",
      "data_source": "seed_script",
      "description": "46 miles through Garrison Keillor country",
      "place_rank": 24,
      "osm_id": null,
      "osm_type": null,
      "search_name": null,
      "external_id": "mn_park_lake_wobegon_trail"
    },
    {
      "id": 249,
      "name": "Minnesota River State Trail",
      "lat": "44.53330000",
      "lng": "-93.96670000",
      "park_type": "Trail System",
      "data_source": "seed_script",
      "description": "Growing trail along Minnesota River valley",
      "place_rank": 24,
      "osm_id": null,
      "osm_type": null,
      "search_name": null,
      "external_id": "mn_park_minnesota_river_state_trail"
    },
    {
      "id": 242,
      "name": "Paul Bunyan State Trail",
      "lat": "46.35000000",
      "lng": "-94.20000000",
      "park_type": "Trail System",
      "data_source": "seed_script",
      "description": "120 miles - Minnesota's longest rail-trail",
      "place_rank": 24,
      "osm_id": null,
      "osm_type": null,
      "search_name": null,
      "external_id": "mn_park_paul_bunyan_state_trail"
    },
    {
      "id": 241,
      "name": "Root River State Trail",
      "lat": "43.78330000",
      "lng": "-92.06670000",
      "park_type": "Trail System",
      "data_source": "seed_script",
      "description": "42 miles through bluff country",
      "place_rank": 24,
      "osm_id": null,
      "osm_type": null,
      "search_name": null,
      "external_id": "mn_park_root_river_state_trail"
    },
    {
      "id": 248,
      "name": "Sakatah Singing Hills State Trail",
      "lat": "44.21670000",
      "lng": "-93.53330000",
      "park_type": "Trail System",
      "data_source": "seed_script",
      "description": "39 miles through lakes and towns",
      "place_rank": 24,
      "osm_id": null,
      "osm_type": null,
      "search_name": null,
      "external_id": "mn_park_sakatah_singing_hills_state_trail"
    },
    {
      "id": 282,
      "name": "Audubon Center of the North Woods",
      "lat": "46.86670000",
      "lng": "-93.13330000",
      "park_type": "Nature Center",
      "data_source": "seed_script",
      "description": "Wildlife education and trails",
      "place_rank": 25,
      "osm_id": null,
      "osm_type": null,
      "search_name": null,
      "external_id": "mn_park_audubon_center_of_the_north_woods"
    },
    {
      "id": 285,
      "name": "Deep Portage Conservation Reserve",
      "lat": "46.83330000",
      "lng": "-94.71670000",
      "park_type": "Nature Center",
      "data_source": "seed_script",
      "description": "6,000 acres of learning landscape",
      "place_rank": 25,
      "osm_id": null,
      "osm_type": null,
      "search_name": null,
      "external_id": "mn_park_deep_portage_conservation_reserve"
    },
    {
      "id": 283,
      "name": "Eagle Bluff Environmental Learning Center",
      "lat": "44.15000000",
      "lng": "-92.03330000",
      "park_type": "Nature Center",
      "data_source": "seed_script",
      "description": "Bluff-top learning center",
      "place_rank": 25,
      "osm_id": null,
      "osm_type": null,
      "search_name": null,
      "external_id": "mn_park_eagle_bluff_environmental_learning_center"
    },
    {
      "id": 284,
      "name": "Long Lake Conservation Center",
      "lat": "46.88330000",
      "lng": "-93.56670000",
      "park_type": "Nature Center",
      "data_source": "seed_script",
      "description": "Environmental education facility",
      "place_rank": 25,
      "osm_id": null,
      "osm_type": null,
      "search_name": null,
      "external_id": "mn_park_long_lake_conservation_center"
    },
    {
      "id": 281,
      "name": "Wolf Ridge Environmental Learning Center",
      "lat": "47.46670000",
      "lng": "-91.38330000",
      "park_type": "Nature Center",
      "data_source": "seed_script",
      "description": "Environmental education on Lake Superior",
      "place_rank": 25,
      "osm_id": null,
      "osm_type": null,
      "search_name": null,
      "external_id": "mn_park_wolf_ridge_environmental_learning_center"
    },
    {
      "id": 276,
      "name": "Historic Fort Snelling",
      "lat": "44.89280000",
      "lng": "-93.18110000",
      "park_type": "Historic Site",
      "data_source": "seed_script",
      "description": "1820s military fort with trails",
      "place_rank": 26,
      "osm_id": null,
      "osm_type": null,
      "search_name": null,
      "external_id": "mn_park_historic_fort_snelling"
    },
    {
      "id": 278,
      "name": "Jeffers Petroglyphs",
      "lat": "44.06670000",
      "lng": "-95.05000000",
      "park_type": "Historic Site",
      "data_source": "seed_script",
      "description": "Ancient rock carvings on the prairie",
      "place_rank": 26,
      "osm_id": null,
      "osm_type": null,
      "search_name": null,
      "external_id": "mn_park_jeffers_petroglyphs"
    },
    {
      "id": 280,
      "name": "Lac qui Parle Mission",
      "lat": "45.03330000",
      "lng": "-95.91670000",
      "park_type": "Historic Site",
      "data_source": "seed_script",
      "description": "1835 mission site with trails",
      "place_rank": 26,
      "osm_id": null,
      "osm_type": null,
      "search_name": null,
      "external_id": "mn_park_lac_qui_parle_mission"
    },
    {
      "id": 277,
      "name": "Oliver H. Kelley Farm",
      "lat": "45.23330000",
      "lng": "-93.66670000",
      "park_type": "Historic Site",
      "data_source": "seed_script",
      "description": "Historic farm with nature trails",
      "place_rank": 26,
      "osm_id": null,
      "osm_type": null,
      "search_name": null,
      "external_id": "mn_park_oliver_h__kelley_farm"
    },
    {
      "id": 272,
      "name": "Crow River State Water Trail",
      "lat": "45.13330000",
      "lng": "-94.50000000",
      "park_type": "Water Trail",
      "data_source": "seed_script",
      "description": "Prairie river paddling",
      "place_rank": 27,
      "osm_id": null,
      "osm_type": null,
      "search_name": null,
      "external_id": "mn_park_crow_river_state_water_trail"
    },
    {
      "id": 271,
      "name": "Kettle River State Water Trail",
      "lat": "46.51670000",
      "lng": "-92.86670000",
      "park_type": "Water Trail",
      "data_source": "seed_script",
      "description": "Whitewater paddling adventure",
      "place_rank": 27,
      "osm_id": null,
      "osm_type": null,
      "search_name": null,
      "external_id": "mn_park_kettle_river_state_water_trail"
    },
    {
      "id": 273,
      "name": "Minnesota River State Water Trail",
      "lat": "44.88330000",
      "lng": "-93.93330000",
      "park_type": "Water Trail",
      "data_source": "seed_script",
      "description": "Historic river route",
      "place_rank": 27,
      "osm_id": null,
      "osm_type": null,
      "search_name": null,
      "external_id": "mn_park_minnesota_river_state_water_trail"
    },
    {
      "id": 274,
      "name": "Red Lake River State Water Trail",
      "lat": "47.88330000",
      "lng": "-96.08330000",
      "park_type": "Water Trail",
      "data_source": "seed_script",
      "description": "Northern river journey",
      "place_rank": 27,
      "osm_id": null,
      "osm_type": null,
      "search_name": null,
      "external_id": "mn_park_red_lake_river_state_water_trail"
    },
    {
      "id": 275,
      "name": "Straight River State Water Trail",
      "lat": "44.01670000",
      "lng": "-93.30000000",
      "park_type": "Water Trail",
      "data_source": "seed_script",
      "description": "Clear water paddling",
      "place_rank": 27,
      "osm_id": null,
      "osm_type": null,
      "search_name": null,
      "external_id": "mn_park_straight_river_state_water_trail"
    },
    {
      "id": 270,
      "name": "Whiteface River State Water Trail",
      "lat": "46.66670000",
      "lng": "-92.75000000",
      "park_type": "Water Trail",
      "data_source": "seed_script",
      "description": "Scenic paddling through forests",
      "place_rank": 27,
      "osm_id": null,
      "osm_type": null,
      "search_name": null,
      "external_id": "mn_park_whiteface_river_state_water_trail"
    },
    {
      "id": 25,
      "name": "Carlos Avery Wildlife Management Area",
      "lat": "45.28000000",
      "lng": "-93.14500000",
      "park_type": "Wildlife Area",
      "data_source": "manual",
      "description": "Wildlife viewing and hunting area with hiking trails near Nowthen",
      "place_rank": 30,
      "osm_id": null,
      "osm_type": null,
      "search_name": {
        "primary": "Carlos Avery Wildlife Management Area",
        "variations": [
          "Carlos Avery Wildlife Management Area"
        ]
      },
      "external_id": null
    }
  ]
}
